header: 
  seq: 92881
  stamp: 
    secs: 1560894565
    nsecs: 846889506
  frame_id: "ti_mmwave"
point_id: 0
x: 0.01171875
y: -0.0390625
z: -0.0078125
range: 0.0435769706964
velocity: 0.0
doppler_bin: 8
bearing: -73.3007583618
intensity: 30.6557979584
---
header: 
  seq: 92882
  stamp: 
    secs: 1560894565
    nsecs: 847085276
  frame_id: "ti_mmwave"
point_id: 1
x: 0.02734375
y: -0.076171875
z: -0.009765625
range: 0.0871539413929
velocity: 0.0
doppler_bin: 8
bearing: -70.2531661987
intensity: 31.8440742493
---
header: 
  seq: 92883
  stamp: 
    secs: 1560894565
    nsecs: 847102204
  frame_id: "ti_mmwave"
point_id: 2
x: 0.029296875
y: -0.119140625
z: -0.005859375
range: 0.130730912089
velocity: 0.0
doppler_bin: 8
bearing: -76.1849746704
intensity: 30.0774784088
---
header: 
  seq: 92884
  stamp: 
    secs: 1560894565
    nsecs: 847113178
  frame_id: "ti_mmwave"
point_id: 3
x: 0.056640625
y: -0.154296875
z: 0.0078125
range: 0.174307882786
velocity: 0.0
doppler_bin: 8
bearing: -69.8423843384
intensity: 25.403295517
---
header: 
  seq: 92885
  stamp: 
    secs: 1560894565
    nsecs: 847122320
  frame_id: "ti_mmwave"
point_id: 4
x: 0.494140625
y: -0.0
z: 1.16796875
range: 1.35088610649
velocity: 0.0
doppler_bin: 8
bearing: -0.0
intensity: 23.2221927643
---
header: 
  seq: 92886
  stamp: 
    secs: 1560894565
    nsecs: 847132197
  frame_id: "ti_mmwave"
point_id: 5
x: 0.53125
y: -0.041015625
z: 1.1953125
range: 1.39446306229
velocity: 0.0
doppler_bin: 8
bearing: -4.41481304169
intensity: 24.2651119232
---
header: 
  seq: 92887
  stamp: 
    secs: 1560894565
    nsecs: 847141041
  frame_id: "ti_mmwave"
point_id: 6
x: 0.5546875
y: -0.0
z: 1.23046875
range: 1.43804001808
velocity: 0.0
doppler_bin: 8
bearing: -0.0
intensity: 22.810333252
---
header: 
  seq: 92888
  stamp: 
    secs: 1560894565
    nsecs: 847149262
  frame_id: "ti_mmwave"
point_id: 7
x: 2.64453125
y: -0.0
z: 0.98828125
range: 3.00681090355
velocity: 0.0
doppler_bin: 8
bearing: -0.0
intensity: 28.8081359863
---
header: 
  seq: 92889
  stamp: 
    secs: 1560894565
    nsecs: 847160462
  frame_id: "ti_mmwave"
point_id: 8
x: 2.68359375
y: -0.0
z: 1.0
range: 3.05038785934
velocity: 0.0
doppler_bin: 8
bearing: -0.0
intensity: 32.2089233398
---
header: 
  seq: 92890
  stamp: 
    secs: 1560894565
    nsecs: 847362403
  frame_id: "ti_mmwave"
point_id: 9
x: 2.728515625
y: 0.08984375
z: 0.990234375
range: 3.09396481514
velocity: 0.0
doppler_bin: 8
bearing: 1.88593709469
intensity: 31.3608608246
---
header: 
  seq: 92891
  stamp: 
    secs: 1560894565
    nsecs: 847387606
  frame_id: "ti_mmwave"
point_id: 10
x: 4.458984375
y: -0.0
z: 1.05078125
range: 4.88062095642
velocity: 0.0
doppler_bin: 8
bearing: -0.0
intensity: 30.9968070984
---
header: 
  seq: 92892
  stamp: 
    secs: 1560894565
    nsecs: 847400905
  frame_id: "ti_mmwave"
point_id: 11
x: 4.525390625
y: -0.0
z: 0.9453125
range: 4.9241976738
velocity: 0.0
doppler_bin: 8
bearing: -0.0
intensity: 30.6445808411
---
header: 
  seq: 92893
  stamp: 
    secs: 1560894565
    nsecs: 847413378
  frame_id: "ti_mmwave"
point_id: 12
x: 4.65625
y: -0.0
z: 0.244140625
range: 4.96777486801
velocity: 0.0
doppler_bin: 8
bearing: -0.0
intensity: 31.4891090393
---
header: 
  seq: 92894
  stamp: 
    secs: 1560894565
    nsecs: 847426388
  frame_id: "ti_mmwave"
point_id: 13
x: 4.69921875
y: -0.0
z: 0.19921875
range: 5.01135158539
velocity: 0.0
doppler_bin: 8
bearing: -0.0
intensity: 32.866809845
---
header: 
  seq: 92895
  stamp: 
    secs: 1560894565
    nsecs: 847437971
  frame_id: "ti_mmwave"
point_id: 14
x: 4.740234375
y: -0.1484375
z: -0.146484375
range: 5.0549287796
velocity: 0.0
doppler_bin: 8
bearing: -1.79359567165
intensity: 32.3954963684
---
header: 
  seq: 92896
  stamp: 
    secs: 1560894565
    nsecs: 847448753
  frame_id: "ti_mmwave"
point_id: 15
x: 4.767578125
y: -0.150390625
z: -0.38671875
range: 5.09850549698
velocity: 0.0
doppler_bin: 8
bearing: -1.80676472187
intensity: 33.7383117676
---
header: 
  seq: 92897
  stamp: 
    secs: 1560894565
    nsecs: 847461003
  frame_id: "ti_mmwave"
point_id: 16
x: 4.80859375
y: -0.150390625
z: -0.3828125
range: 5.14208269119
velocity: 0.0
doppler_bin: 8
bearing: -1.79136347771
intensity: 34.3071975708
---
header: 
  seq: 92898
  stamp: 
    secs: 1560894565
    nsecs: 847475387
  frame_id: "ti_mmwave"
point_id: 17
x: 4.837890625
y: -0.0
z: -0.544921875
range: 5.18565940857
velocity: 0.0
doppler_bin: 8
bearing: -0.0
intensity: 31.5259399414
---
header: 
  seq: 92899
  stamp: 
    secs: 1560894565
    nsecs: 847486208
  frame_id: "ti_mmwave"
point_id: 18
x: 4.833984375
y: -0.154296875
z: 1.05078125
range: 5.27281332016
velocity: 0.0
doppler_bin: 8
bearing: -1.82821428776
intensity: 30.9760437012
---
header: 
  seq: 92900
  stamp: 
    secs: 1560894565
    nsecs: 847497738
  frame_id: "ti_mmwave"
point_id: 19
x: 1.857421875
y: 1.265625
z: -0.10546875
range: 2.396733284
velocity: 0.614668667316
doppler_bin: 9
bearing: 34.2700500488
intensity: 26.8033542633
---
header: 
  seq: 92901
  stamp: 
    secs: 1560894565
    nsecs: 847509254
  frame_id: "ti_mmwave"
point_id: 20
x: 1.939453125
y: 1.216796875
z: -0.056640625
range: 2.44031047821
velocity: 0.614668667316
doppler_bin: 9
bearing: 32.1038208008
intensity: 28.3442077637
---
header: 
  seq: 92902
  stamp: 
    secs: 1560894565
    nsecs: 847585411
  frame_id: "ti_mmwave"
point_id: 21
x: 1.927734375
y: 1.3125
z: 0.05859375
range: 2.48388743401
velocity: 0.614668667316
doppler_bin: 9
bearing: 34.2490348816
intensity: 26.812412262
---
header: 
  seq: 92903
  stamp: 
    secs: 1560894565
    nsecs: 847605928
  frame_id: "ti_mmwave"
point_id: 23
x: 0.037109375
y: -0.03515625
z: 0.064453125
range: 0.0871539413929
velocity: 0.0
doppler_bin: 8
bearing: -43.4518432617
intensity: 30.1157035828
---
header: 
  seq: 92904
  stamp: 
    secs: 1560894565
    nsecs: 847619387
  frame_id: "ti_mmwave"
point_id: 24
x: 0.046875
y: -0.046875
z: 0.103515625
range: 0.130730912089
velocity: 0.0
doppler_bin: 8
bearing: -45.0
intensity: 28.9982051849
---
header: 
  seq: 92905
  stamp: 
    secs: 1560894565
    nsecs: 848487852
  frame_id: "ti_mmwave"
point_id: 0
x: 0.01171875
y: -0.0390625
z: -0.0078125
range: 0.0435769706964
velocity: 0.0
doppler_bin: 8
bearing: -73.3007583618
intensity: 30.6595306396
---
header: 
  seq: 92906
  stamp: 
    secs: 1560894565
    nsecs: 848556625
  frame_id: "ti_mmwave"
point_id: 1
x: 0.02734375
y: -0.076171875
z: -0.009765625
range: 0.0871539413929
velocity: 0.0
doppler_bin: 8
bearing: -70.2531661987
intensity: 31.8469142914
---
header: 
  seq: 92907
  stamp: 
    secs: 1560894565
    nsecs: 848568670
  frame_id: "ti_mmwave"
point_id: 2
x: 0.029296875
y: -0.119140625
z: -0.005859375
range: 0.130730912089
velocity: 0.0
doppler_bin: 8
bearing: -76.1849746704
intensity: 30.0774784088
---
header: 
  seq: 92908
  stamp: 
    secs: 1560894565
    nsecs: 848580186
  frame_id: "ti_mmwave"
point_id: 3
x: 0.056640625
y: -0.154296875
z: 0.0078125
range: 0.174307882786
velocity: 0.0
doppler_bin: 8
bearing: -69.8423843384
intensity: 25.403295517
---
header: 
  seq: 92909
  stamp: 
    secs: 1560894565
    nsecs: 848589411
  frame_id: "ti_mmwave"
point_id: 4
x: 0.48828125
y: -0.0
z: 1.169921875
range: 1.35088610649
velocity: 0.0
doppler_bin: 8
bearing: -0.0
intensity: 23.2633590698
---
header: 
  seq: 92910
  stamp: 
    secs: 1560894565
    nsecs: 848597436
  frame_id: "ti_mmwave"
point_id: 5
x: 0.52734375
y: -0.041015625
z: 1.197265625
range: 1.39446306229
velocity: 0.0
doppler_bin: 8
bearing: -4.44738483429
intensity: 24.2975234985
---
header: 
  seq: 92911
  stamp: 
    secs: 1560894565
    nsecs: 848605592
  frame_id: "ti_mmwave"
point_id: 6
x: 0.552734375
y: -0.0
z: 1.232421875
range: 1.43804001808
velocity: 0.0
doppler_bin: 8
bearing: -0.0
intensity: 22.8330116272
---
header: 
  seq: 92912
  stamp: 
    secs: 1560894565
    nsecs: 848623703
  frame_id: "ti_mmwave"
point_id: 7
x: 2.642578125
y: -0.0
z: 0.994140625
range: 3.00681090355
velocity: 0.0
doppler_bin: 8
bearing: -0.0
intensity: 28.8195495605
---
header: 
  seq: 92913
  stamp: 
    secs: 1560894565
    nsecs: 848641311
  frame_id: "ti_mmwave"
point_id: 8
x: 2.68359375
y: -0.0
z: 0.998046875
range: 3.05038785934
velocity: 0.0
doppler_bin: 8
bearing: -0.0
intensity: 32.1984634399
---
header: 
  seq: 92914
  stamp: 
    secs: 1560894565
    nsecs: 848657318
  frame_id: "ti_mmwave"
point_id: 9
x: 2.734375
y: 0.08984375
z: 0.9765625
range: 3.09396481514
velocity: 0.0
doppler_bin: 8
bearing: 1.88189852238
intensity: 31.3353881836
---
header: 
  seq: 92915
  stamp: 
    secs: 1560894565
    nsecs: 848673811
  frame_id: "ti_mmwave"
point_id: 10
x: 4.45703125
y: -0.0
z: 1.060546875
range: 4.88062095642
velocity: 0.0
doppler_bin: 8
bearing: -0.0
intensity: 30.9829750061
---
header: 
  seq: 92916
  stamp: 
    secs: 1560894565
    nsecs: 848688920
  frame_id: "ti_mmwave"
point_id: 11
x: 4.525390625
y: -0.0
z: 0.94140625
range: 4.9241976738
velocity: 0.0
doppler_bin: 8
bearing: -0.0
intensity: 30.6258201599
---
header: 
  seq: 92917
  stamp: 
    secs: 1560894565
    nsecs: 848699013
  frame_id: "ti_mmwave"
point_id: 12
x: 4.65625
y: -0.0
z: 0.2421875
range: 4.96777486801
velocity: 0.0
doppler_bin: 8
bearing: -0.0
intensity: 31.47057724
---
header: 
  seq: 92918
  stamp: 
    secs: 1560894565
    nsecs: 848850733
  frame_id: "ti_mmwave"
point_id: 13
x: 4.697265625
y: 0.146484375
z: 0.2265625
range: 5.01135158539
velocity: 0.0
doppler_bin: 8
bearing: 1.7861918211
intensity: 32.8645629883
---
header: 
  seq: 92919
  stamp: 
    secs: 1560894565
    nsecs: 848869963
  frame_id: "ti_mmwave"
point_id: 14
x: 4.740234375
y: -0.1484375
z: -0.142578125
range: 5.0549287796
velocity: 0.0
doppler_bin: 8
bearing: -1.79359567165
intensity: 32.392993927
---
header: 
  seq: 92920
  stamp: 
    secs: 1560894565
    nsecs: 848878318
  frame_id: "ti_mmwave"
point_id: 15
x: 4.76953125
y: -0.150390625
z: -0.37890625
range: 5.09850549698
velocity: 0.0
doppler_bin: 8
bearing: -1.80602538586
intensity: 33.740146637
---
header: 
  seq: 92921
  stamp: 
    secs: 1560894565
    nsecs: 848888879
  frame_id: "ti_mmwave"
point_id: 16
x: 4.80859375
y: -0.150390625
z: -0.384765625
range: 5.14208269119
velocity: 0.0
doppler_bin: 8
bearing: -1.79136347771
intensity: 34.2878265381
---
header: 
  seq: 92922
  stamp: 
    secs: 1560894565
    nsecs: 848897412
  frame_id: "ti_mmwave"
point_id: 17
x: 4.828125
y: -0.0
z: -0.625
range: 5.18565940857
velocity: 0.0
doppler_bin: 8
bearing: -0.0
intensity: 31.3545074463
---
header: 
  seq: 92923
  stamp: 
    secs: 1560894565
    nsecs: 848905258
  frame_id: "ti_mmwave"
point_id: 18
x: 4.853515625
y: -0.154296875
z: 0.95703125
range: 5.27281332016
velocity: 0.0
doppler_bin: 8
bearing: -1.82086229324
intensity: 30.9516925812
---
header: 
  seq: 92924
  stamp: 
    secs: 1560894565
    nsecs: 848913282
  frame_id: "ti_mmwave"
point_id: 19
x: 1.904296875
y: 1.1953125
z: -0.060546875
range: 2.396733284
velocity: 0.614668667316
doppler_bin: 9
bearing: 32.1161727905
intensity: 25.4777469635
---
header: 
  seq: 92925
  stamp: 
    secs: 1560894565
    nsecs: 848918750
  frame_id: "ti_mmwave"
point_id: 20
x: 1.939453125
y: 1.216796875
z: -0.064453125
range: 2.44031047821
velocity: 0.614668667316
doppler_bin: 9
bearing: 32.1038208008
intensity: 29.7312793732
---
header: 
  seq: 92926
  stamp: 
    secs: 1560894565
    nsecs: 848923235
  frame_id: "ti_mmwave"
point_id: 21
x: 1.92578125
y: 1.3125
z: -0.072265625
range: 2.48388743401
velocity: 0.614668667316
doppler_bin: 9
bearing: 34.276058197
intensity: 31.1025295258
---
header: 
  seq: 92927
  stamp: 
    secs: 1560894565
    nsecs: 848946566
  frame_id: "ti_mmwave"
point_id: 22
x: 1.958984375
y: 1.333984375
z: -0.103515625
range: 2.5274643898
velocity: 0.614668667316
doppler_bin: 9
bearing: 34.2531852722
intensity: 29.7772369385
---
header: 
  seq: 92928
  stamp: 
    secs: 1560894565
    nsecs: 848965087
  frame_id: "ti_mmwave"
point_id: 23
x: 1.93359375
y: 1.43359375
z: -0.173828125
range: 2.5710413456
velocity: 0.614668667316
doppler_bin: 9
bearing: 36.5537567139
intensity: 25.6702632904
---
header: 
  seq: 92929
  stamp: 
    secs: 1560894565
    nsecs: 848983495
  frame_id: "ti_mmwave"
point_id: 25
x: 0.037109375
y: -0.03515625
z: 0.064453125
range: 0.0871539413929
velocity: 0.0
doppler_bin: 8
bearing: -43.4518432617
intensity: 30.1114730835
---
header: 
  seq: 92930
  stamp: 
    secs: 1560894565
    nsecs: 848997572
  frame_id: "ti_mmwave"
point_id: 26
x: 0.046875
y: -0.046875
z: 0.103515625
range: 0.130730912089
velocity: 0.0
doppler_bin: 8
bearing: -45.0
intensity: 28.9982051849
---
header: 
  seq: 92931
  stamp: 
    secs: 1560894565
    nsecs: 906915018
  frame_id: "ti_mmwave"
point_id: 0
x: 0.01171875
y: -0.0390625
z: -0.0078125
range: 0.0435769706964
velocity: 0.0
doppler_bin: 8
bearing: -73.3007583618
intensity: 30.6557979584
---
header: 
  seq: 92932
  stamp: 
    secs: 1560894565
    nsecs: 906991191
  frame_id: "ti_mmwave"
point_id: 1
x: 0.02734375
y: -0.076171875
z: -0.009765625
range: 0.0871539413929
velocity: 0.0
doppler_bin: 8
bearing: -70.2531661987
intensity: 31.8469142914
---
header: 
  seq: 92933
  stamp: 
    secs: 1560894565
    nsecs: 907007379
  frame_id: "ti_mmwave"
point_id: 2
x: 0.029296875
y: -0.119140625
z: -0.005859375
range: 0.130730912089
velocity: 0.0
doppler_bin: 8
bearing: -76.1849746704
intensity: 30.0774784088
---
header: 
  seq: 92934
  stamp: 
    secs: 1560894565
    nsecs: 907021608
  frame_id: "ti_mmwave"
point_id: 3
x: 0.056640625
y: -0.154296875
z: 0.0078125
range: 0.174307882786
velocity: 0.0
doppler_bin: 8
bearing: -69.8423843384
intensity: 25.403295517
---
header: 
  seq: 92935
  stamp: 
    secs: 1560894565
    nsecs: 907033999
  frame_id: "ti_mmwave"
point_id: 4
x: 0.48046875
y: -0.0
z: 1.173828125
range: 1.35088610649
velocity: 0.0
doppler_bin: 8
bearing: -0.0
intensity: 23.2428245544
---
header: 
  seq: 92936
  stamp: 
    secs: 1560894565
    nsecs: 907112296
  frame_id: "ti_mmwave"
point_id: 5
x: 0.515625
y: -0.041015625
z: 1.203125
range: 1.39446306229
velocity: 0.0
doppler_bin: 8
bearing: -4.54804229736
intensity: 24.2488155365
---
header: 
  seq: 92937
  stamp: 
    secs: 1560894565
    nsecs: 907126922
  frame_id: "ti_mmwave"
point_id: 6
x: 0.521484375
y: -0.0
z: 1.244140625
range: 1.43804001808
velocity: 0.0
doppler_bin: 8
bearing: -0.0
intensity: 22.7646179199
---
header: 
  seq: 92938
  stamp: 
    secs: 1560894565
    nsecs: 907138204
  frame_id: "ti_mmwave"
point_id: 7
x: 2.642578125
y: -0.0
z: 0.9921875
range: 3.00681090355
velocity: 0.0
doppler_bin: 8
bearing: -0.0
intensity: 28.8081359863
---
header: 
  seq: 92939
  stamp: 
    secs: 1560894565
    nsecs: 907150676
  frame_id: "ti_mmwave"
point_id: 8
x: 2.68359375
y: -0.0
z: 1.0
range: 3.05038785934
velocity: 0.0
doppler_bin: 8
bearing: -0.0
intensity: 32.1906051636
---
header: 
  seq: 92940
  stamp: 
    secs: 1560894565
    nsecs: 907162384
  frame_id: "ti_mmwave"
point_id: 9
x: 2.73046875
y: 0.08984375
z: 0.984375
range: 3.09396481514
velocity: 0.0
doppler_bin: 8
bearing: 1.88458883762
intensity: 31.3513259888
---
header: 
  seq: 92941
  stamp: 
    secs: 1560894565
    nsecs: 907174055
  frame_id: "ti_mmwave"
point_id: 10
x: 4.458984375
y: -0.0
z: 1.052734375
range: 4.88062095642
velocity: 0.0
doppler_bin: 8
bearing: -0.0
intensity: 30.979511261
---
header: 
  seq: 92942
  stamp: 
    secs: 1560894565
    nsecs: 907186056
  frame_id: "ti_mmwave"
point_id: 11
x: 4.525390625
y: -0.0
z: 0.9375
range: 4.9241976738
velocity: 0.0
doppler_bin: 8
bearing: -0.0
intensity: 30.6258201599
---
header: 
  seq: 92943
  stamp: 
    secs: 1560894565
    nsecs: 907199047
  frame_id: "ti_mmwave"
point_id: 12
x: 4.65625
y: -0.0
z: 0.24609375
range: 4.96777486801
velocity: 0.0
doppler_bin: 8
bearing: -0.0
intensity: 31.47057724
---
header: 
  seq: 92944
  stamp: 
    secs: 1560894565
    nsecs: 907212791
  frame_id: "ti_mmwave"
point_id: 13
x: 4.697265625
y: 0.146484375
z: 0.228515625
range: 5.01135158539
velocity: 0.0
doppler_bin: 8
bearing: 1.7861918211
intensity: 32.8757781982
---
header: 
  seq: 92945
  stamp: 
    secs: 1560894565
    nsecs: 907236529
  frame_id: "ti_mmwave"
point_id: 14
x: 4.740234375
y: -0.1484375
z: -0.140625
range: 5.0549287796
velocity: 0.0
doppler_bin: 8
bearing: -1.79359567165
intensity: 32.4154663086
---
header: 
  seq: 92946
  stamp: 
    secs: 1560894565
    nsecs: 907256417
  frame_id: "ti_mmwave"
point_id: 15
x: 4.76953125
y: -0.150390625
z: -0.376953125
range: 5.09850549698
velocity: 0.0
doppler_bin: 8
bearing: -1.80602538586
intensity: 33.7529792786
---
header: 
  seq: 92947
  stamp: 
    secs: 1560894565
    nsecs: 907274564
  frame_id: "ti_mmwave"
point_id: 16
x: 4.810546875
y: -0.150390625
z: -0.357421875
range: 5.14208269119
velocity: 0.0
doppler_bin: 8
bearing: -1.7906370163
intensity: 34.2651138306
---
header: 
  seq: 92948
  stamp: 
    secs: 1560894565
    nsecs: 907343475
  frame_id: "ti_mmwave"
point_id: 17
x: 4.84765625
y: -0.0
z: -0.44140625
range: 5.18565940857
velocity: 0.0
doppler_bin: 8
bearing: -0.0
intensity: 31.1058979034
---
header: 
  seq: 92949
  stamp: 
    secs: 1560894565
    nsecs: 907360292
  frame_id: "ti_mmwave"
point_id: 18
x: 4.6875
y: -0.0
z: 1.58984375
range: 5.27281332016
velocity: 0.0
doppler_bin: 8
bearing: -0.0
intensity: 31.1126251221
---
header: 
  seq: 92950
  stamp: 
    secs: 1560894565
    nsecs: 907376279
  frame_id: "ti_mmwave"
point_id: 20
x: 0.037109375
y: -0.03515625
z: 0.064453125
range: 0.0871539413929
velocity: 0.0
doppler_bin: 8
bearing: -43.4518432617
intensity: 30.1072387695
---
header: 
  seq: 92951
  stamp: 
    secs: 1560894565
    nsecs: 907390529
  frame_id: "ti_mmwave"
point_id: 21
x: 0.046875
y: -0.046875
z: 0.103515625
range: 0.130730912089
velocity: 0.0
doppler_bin: 8
bearing: -45.0
intensity: 28.9927310944
---
header: 
  seq: 92952
  stamp: 
    secs: 1560894565
    nsecs: 907404583
  frame_id: "ti_mmwave"
point_id: 22
x: 0.013671875
y: -0.056640625
z: 0.15234375
range: 0.174307882786
velocity: 0.0
doppler_bin: 8
bearing: -76.4295654297
intensity: 25.2244415283
---
header: 
  seq: 92953
  stamp: 
    secs: 1560894565
    nsecs: 908467396
  frame_id: "ti_mmwave"
point_id: 0
x: 0.01171875
y: -0.0390625
z: -0.0078125
range: 0.0435769706964
velocity: 0.0
doppler_bin: 8
bearing: -73.3007583618
intensity: 30.6557979584
---
header: 
  seq: 92954
  stamp: 
    secs: 1560894565
    nsecs: 908507559
  frame_id: "ti_mmwave"
point_id: 1
x: 0.02734375
y: -0.076171875
z: -0.009765625
range: 0.0871539413929
velocity: 0.0
doppler_bin: 8
bearing: -70.2531661987
intensity: 31.8469142914
---
header: 
  seq: 92955
  stamp: 
    secs: 1560894565
    nsecs: 908524552
  frame_id: "ti_mmwave"
point_id: 2
x: 0.029296875
y: -0.119140625
z: -0.005859375
range: 0.130730912089
velocity: 0.0
doppler_bin: 8
bearing: -76.1849746704
intensity: 30.081741333
---
header: 
  seq: 92956
  stamp: 
    secs: 1560894565
    nsecs: 908539791
  frame_id: "ti_mmwave"
point_id: 3
x: 0.056640625
y: -0.154296875
z: 0.0078125
range: 0.174307882786
velocity: 0.0
doppler_bin: 8
bearing: -69.8423843384
intensity: 25.403295517
---
header: 
  seq: 92957
  stamp: 
    secs: 1560894565
    nsecs: 908589108
  frame_id: "ti_mmwave"
point_id: 4
x: 0.484375
y: -0.0
z: 1.171875
range: 1.35088610649
velocity: 0.0
doppler_bin: 8
bearing: -0.0
intensity: 23.2428245544
---
header: 
  seq: 92958
  stamp: 
    secs: 1560894565
    nsecs: 908601500
  frame_id: "ti_mmwave"
point_id: 5
x: 0.5234375
y: -0.041015625
z: 1.19921875
range: 1.39446306229
velocity: 0.0
doppler_bin: 8
bearing: -4.48043966293
intensity: 24.2651119232
---
header: 
  seq: 92959
  stamp: 
    secs: 1560894565
    nsecs: 908613030
  frame_id: "ti_mmwave"
point_id: 6
x: 0.54296875
y: -0.0
z: 1.236328125
range: 1.43804001808
velocity: 0.0
doppler_bin: 8
bearing: -0.0
intensity: 22.810333252
---
header: 
  seq: 92960
  stamp: 
    secs: 1560894565
    nsecs: 908624447
  frame_id: "ti_mmwave"
point_id: 7
x: 2.638671875
y: -0.0
z: 1.00390625
range: 3.00681090355
velocity: 0.0
doppler_bin: 8
bearing: -0.0
intensity: 28.8252449036
---
header: 
  seq: 92961
  stamp: 
    secs: 1560894565
    nsecs: 908637397
  frame_id: "ti_mmwave"
point_id: 8
x: 2.681640625
y: -0.0
z: 1.00390625
range: 3.05038785934
velocity: 0.0
doppler_bin: 8
bearing: -0.0
intensity: 32.2063102722
---
header: 
  seq: 92962
  stamp: 
    secs: 1560894565
    nsecs: 908651067
  frame_id: "ti_mmwave"
point_id: 9
x: 2.728515625
y: 0.08984375
z: 0.990234375
range: 3.09396481514
velocity: 0.0
doppler_bin: 8
bearing: 1.88593709469
intensity: 31.3703746796
---
header: 
  seq: 92963
  stamp: 
    secs: 1560894565
    nsecs: 908672626
  frame_id: "ti_mmwave"
point_id: 10
x: 4.458984375
y: -0.0
z: 1.052734375
range: 4.88062095642
velocity: 0.0
doppler_bin: 8
bearing: -0.0
intensity: 30.979511261
---
header: 
  seq: 92964
  stamp: 
    secs: 1560894565
    nsecs: 908691083
  frame_id: "ti_mmwave"
point_id: 11
x: 4.52734375
y: -0.0
z: 0.935546875
range: 4.9241976738
velocity: 0.0
doppler_bin: 8
bearing: -0.0
intensity: 30.6333332062
---
header: 
  seq: 92965
  stamp: 
    secs: 1560894565
    nsecs: 908750370
  frame_id: "ti_mmwave"
point_id: 12
x: 4.658203125
y: -0.0
z: 0.23828125
range: 4.96777486801
velocity: 0.0
doppler_bin: 8
bearing: -0.0
intensity: 31.4736709595
---
header: 
  seq: 92966
  stamp: 
    secs: 1560894565
    nsecs: 908767025
  frame_id: "ti_mmwave"
point_id: 13
x: 4.697265625
y: 0.146484375
z: 0.220703125
range: 5.01135158539
velocity: 0.0
doppler_bin: 8
bearing: 1.7861918211
intensity: 32.871295929
---
header: 
  seq: 92967
  stamp: 
    secs: 1560894565
    nsecs: 908778301
  frame_id: "ti_mmwave"
point_id: 14
x: 4.740234375
y: -0.1484375
z: -0.1484375
range: 5.0549287796
velocity: 0.0
doppler_bin: 8
bearing: -1.79359567165
intensity: 32.4104804993
---
header: 
  seq: 92968
  stamp: 
    secs: 1560894565
    nsecs: 908790786
  frame_id: "ti_mmwave"
point_id: 15
x: 4.767578125
y: -0.150390625
z: -0.380859375
range: 5.09850549698
velocity: 0.0
doppler_bin: 8
bearing: -1.80676472187
intensity: 33.7529792786
---
header: 
  seq: 92969
  stamp: 
    secs: 1560894565
    nsecs: 908803218
  frame_id: "ti_mmwave"
point_id: 16
x: 4.810546875
y: -0.150390625
z: -0.361328125
range: 5.14208269119
velocity: 0.0
doppler_bin: 8
bearing: -1.7906370163
intensity: 34.315246582
---
header: 
  seq: 92970
  stamp: 
    secs: 1560894565
    nsecs: 908816346
  frame_id: "ti_mmwave"
point_id: 17
x: 4.85546875
y: -0.0
z: -0.3515625
range: 5.18565940857
velocity: 0.0
doppler_bin: 8
bearing: -0.0
intensity: 31.4921913147
---
header: 
  seq: 92971
  stamp: 
    secs: 1560894565
    nsecs: 908827996
  frame_id: "ti_mmwave"
point_id: 18
x: 4.77734375
y: -0.0
z: 1.291015625
range: 5.27281332016
velocity: 0.0
doppler_bin: 8
bearing: -0.0
intensity: 31.427022934
---
header: 
  seq: 92972
  stamp: 
    secs: 1560894565
    nsecs: 908839839
  frame_id: "ti_mmwave"
point_id: 19
x: 1.974609375
y: 1.23828125
z: -0.04296875
range: 2.48388743401
velocity: 0.614668667316
doppler_bin: 9
bearing: 32.0919036865
intensity: 28.9376182556
---
header: 
  seq: 92973
  stamp: 
    secs: 1560894565
    nsecs: 908851907
  frame_id: "ti_mmwave"
point_id: 20
x: 1.9609375
y: 1.333984375
z: -0.08203125
range: 2.5274643898
velocity: 0.614668667316
doppler_bin: 9
bearing: 34.2266273499
intensity: 29.3851966858
---
header: 
  seq: 92974
  stamp: 
    secs: 1560894565
    nsecs: 908865722
  frame_id: "ti_mmwave"
point_id: 21
x: 1.99609375
y: 1.357421875
z: -0.0234375
range: 2.5710413456
velocity: 0.614668667316
doppler_bin: 9
bearing: 34.2172355652
intensity: 26.5896492004
---
header: 
  seq: 92975
  stamp: 
    secs: 1560894565
    nsecs: 908894661
  frame_id: "ti_mmwave"
point_id: 23
x: 0.037109375
y: -0.03515625
z: 0.064453125
range: 0.0871539413929
velocity: 0.0
doppler_bin: 8
bearing: -43.4518432617
intensity: 30.1114730835
---
header: 
  seq: 92976
  stamp: 
    secs: 1560894565
    nsecs: 908953279
  frame_id: "ti_mmwave"
point_id: 24
x: 0.046875
y: -0.046875
z: 0.103515625
range: 0.130730912089
velocity: 0.0
doppler_bin: 8
bearing: -45.0
intensity: 28.9982051849
---
header: 
  seq: 92977
  stamp: 
    secs: 1560894565
    nsecs: 908970983
  frame_id: "ti_mmwave"
point_id: 25
x: 0.009765625
y: -0.056640625
z: 0.154296875
range: 0.174307882786
velocity: 0.0
doppler_bin: 8
bearing: -80.217590332
intensity: 25.2374649048
---
header: 
  seq: 92978
  stamp: 
    secs: 1560894565
    nsecs: 966862016
  frame_id: "ti_mmwave"
point_id: 0
x: 0.01171875
y: -0.0390625
z: -0.0078125
range: 0.0435769706964
velocity: 0.0
doppler_bin: 8
bearing: -73.3007583618
intensity: 30.6557979584
---
header: 
  seq: 92979
  stamp: 
    secs: 1560894565
    nsecs: 966934148
  frame_id: "ti_mmwave"
point_id: 1
x: 0.02734375
y: -0.076171875
z: -0.009765625
range: 0.0871539413929
velocity: 0.0
doppler_bin: 8
bearing: -70.2531661987
intensity: 31.8469142914
---
header: 
  seq: 92980
  stamp: 
    secs: 1560894565
    nsecs: 966951114
  frame_id: "ti_mmwave"
point_id: 2
x: 0.029296875
y: -0.119140625
z: -0.005859375
range: 0.130730912089
velocity: 0.0
doppler_bin: 8
bearing: -76.1849746704
intensity: 30.0732097626
---
header: 
  seq: 92981
  stamp: 
    secs: 1560894565
    nsecs: 966966364
  frame_id: "ti_mmwave"
point_id: 3
x: 0.056640625
y: -0.154296875
z: 0.0078125
range: 0.174307882786
velocity: 0.0
doppler_bin: 8
bearing: -69.8423843384
intensity: 25.3907604218
---
header: 
  seq: 92982
  stamp: 
    secs: 1560894565
    nsecs: 966992000
  frame_id: "ti_mmwave"
point_id: 4
x: 0.4921875
y: -0.0
z: 1.169921875
range: 1.35088610649
velocity: 0.0
doppler_bin: 8
bearing: -0.0
intensity: 23.2014636993
---
header: 
  seq: 92983
  stamp: 
    secs: 1560894565
    nsecs: 967010035
  frame_id: "ti_mmwave"
point_id: 5
x: 0.525390625
y: -0.041015625
z: 1.19921875
range: 1.39446306229
velocity: 0.0
doppler_bin: 8
bearing: -4.46385145187
intensity: 24.2324581146
---
header: 
  seq: 92984
  stamp: 
    secs: 1560894565
    nsecs: 967084588
  frame_id: "ti_mmwave"
point_id: 6
x: 0.529296875
y: -0.0
z: 1.2421875
range: 1.43804001808
velocity: 0.0
doppler_bin: 8
bearing: -0.0
intensity: 22.7875366211
---
header: 
  seq: 92985
  stamp: 
    secs: 1560894565
    nsecs: 967098932
  frame_id: "ti_mmwave"
point_id: 7
x: 2.642578125
y: -0.0
z: 0.994140625
range: 3.00681090355
velocity: 0.0
doppler_bin: 8
bearing: -0.0
intensity: 28.7966918945
---
header: 
  seq: 92986
  stamp: 
    secs: 1560894565
    nsecs: 967115969
  frame_id: "ti_mmwave"
point_id: 8
x: 2.681640625
y: -0.0
z: 1.005859375
range: 3.05038785934
velocity: 0.0
doppler_bin: 8
bearing: -0.0
intensity: 32.1906051636
---
header: 
  seq: 92987
  stamp: 
    secs: 1560894565
    nsecs: 967129148
  frame_id: "ti_mmwave"
point_id: 9
x: 2.720703125
y: -0.0
z: 1.015625
range: 3.09396481514
velocity: 0.0
doppler_bin: 8
bearing: -0.0
intensity: 31.389339447
---
header: 
  seq: 92988
  stamp: 
    secs: 1560894565
    nsecs: 967140494
  frame_id: "ti_mmwave"
point_id: 10
x: 4.4609375
y: -0.0
z: 1.044921875
range: 4.88062095642
velocity: 0.0
doppler_bin: 8
bearing: -0.0
intensity: 31.00715065
---
header: 
  seq: 92989
  stamp: 
    secs: 1560894565
    nsecs: 967152261
  frame_id: "ti_mmwave"
point_id: 11
x: 4.52734375
y: -0.0
z: 0.935546875
range: 4.9241976738
velocity: 0.0
doppler_bin: 8
bearing: -0.0
intensity: 30.6370849609
---
header: 
  seq: 92990
  stamp: 
    secs: 1560894565
    nsecs: 967164286
  frame_id: "ti_mmwave"
point_id: 12
x: 4.65625
y: -0.0
z: 0.2421875
range: 4.96777486801
velocity: 0.0
doppler_bin: 8
bearing: -0.0
intensity: 31.4519634247
---
header: 
  seq: 92991
  stamp: 
    secs: 1560894565
    nsecs: 967175702
  frame_id: "ti_mmwave"
point_id: 13
x: 4.697265625
y: 0.146484375
z: 0.228515625
range: 5.01135158539
velocity: 0.0
doppler_bin: 8
bearing: 1.7861918211
intensity: 32.8600730896
---
header: 
  seq: 92992
  stamp: 
    secs: 1560894565
    nsecs: 967188786
  frame_id: "ti_mmwave"
point_id: 14
x: 4.740234375
y: -0.1484375
z: -0.142578125
range: 5.0549287796
velocity: 0.0
doppler_bin: 8
bearing: -1.79359567165
intensity: 32.392993927
---
header: 
  seq: 92993
  stamp: 
    secs: 1560894565
    nsecs: 967202827
  frame_id: "ti_mmwave"
point_id: 15
x: 4.767578125
y: -0.150390625
z: -0.3828125
range: 5.09850549698
velocity: 0.0
doppler_bin: 8
bearing: -1.80676472187
intensity: 33.7474822998
---
header: 
  seq: 92994
  stamp: 
    secs: 1560894565
    nsecs: 967216338
  frame_id: "ti_mmwave"
point_id: 16
x: 4.80859375
y: -0.150390625
z: -0.40234375
range: 5.14208269119
velocity: 0.0
doppler_bin: 8
bearing: -1.79136347771
intensity: 34.3296928406
---
header: 
  seq: 92995
  stamp: 
    secs: 1560894565
    nsecs: 967288803
  frame_id: "ti_mmwave"
point_id: 17
x: 4.826171875
y: -0.0
z: -0.634765625
range: 5.18565940857
velocity: 0.0
doppler_bin: 8
bearing: -0.0
intensity: 31.6256446838
---
header: 
  seq: 92996
  stamp: 
    secs: 1560894565
    nsecs: 967306094
  frame_id: "ti_mmwave"
point_id: 18
x: 4.78515625
y: -0.0
z: 1.263671875
range: 5.27281332016
velocity: 0.0
doppler_bin: 8
bearing: -0.0
intensity: 31.0991592407
---
header: 
  seq: 92997
  stamp: 
    secs: 1560894565
    nsecs: 967319913
  frame_id: "ti_mmwave"
point_id: 19
x: 1.974609375
y: 1.23828125
z: -0.05859375
range: 2.48388743401
velocity: 0.614668667316
doppler_bin: 9
bearing: 32.0919036865
intensity: 28.2801513672
---
header: 
  seq: 92998
  stamp: 
    secs: 1560894565
    nsecs: 967334355
  frame_id: "ti_mmwave"
point_id: 20
x: 2.001953125
y: 1.259765625
z: -0.173828125
range: 2.5274643898
velocity: 0.614668667316
doppler_bin: 9
bearing: 32.1809082031
intensity: 29.7081165314
---
header: 
  seq: 92999
  stamp: 
    secs: 1560894565
    nsecs: 967348411
  frame_id: "ti_mmwave"
point_id: 21
x: 2.01953125
y: 1.28125
z: -0.322265625
range: 2.5710413456
velocity: 0.614668667316
doppler_bin: 9
bearing: 32.3922424316
intensity: 27.5663604736
---
header: 
  seq: 93000
  stamp: 
    secs: 1560894565
    nsecs: 967367458
  frame_id: "ti_mmwave"
point_id: 23
x: 0.037109375
y: -0.03515625
z: 0.064453125
range: 0.0871539413929
velocity: 0.0
doppler_bin: 8
bearing: -43.4518432617
intensity: 30.1114730835
---
header: 
  seq: 93001
  stamp: 
    secs: 1560894565
    nsecs: 967384589
  frame_id: "ti_mmwave"
point_id: 24
x: 0.046875
y: -0.046875
z: 0.103515625
range: 0.130730912089
velocity: 0.0
doppler_bin: 8
bearing: -45.0
intensity: 28.9982051849
---
header: 
  seq: 93002
  stamp: 
    secs: 1560894565
    nsecs: 967404292
  frame_id: "ti_mmwave"
point_id: 26
x: 4.69921875
y: -0.146484375
z: 0.17578125
range: 5.01135158539
velocity: 0.0
doppler_bin: 8
bearing: -1.78544998169
intensity: 32.848815918
---
header: 
  seq: 93003
  stamp: 
    secs: 1560894566
    nsecs:  26866740
  frame_id: "ti_mmwave"
point_id: 0
x: 0.01171875
y: -0.0390625
z: -0.0078125
range: 0.0435769706964
velocity: 0.0
doppler_bin: 8
bearing: -73.3007583618
intensity: 30.6520614624
---
header: 
  seq: 93004
  stamp: 
    secs: 1560894566
    nsecs:  26933474
  frame_id: "ti_mmwave"
point_id: 1
x: 0.02734375
y: -0.076171875
z: -0.009765625
range: 0.0871539413929
velocity: 0.0
doppler_bin: 8
bearing: -70.2531661987
intensity: 31.8440742493
---
header: 
  seq: 93005
  stamp: 
    secs: 1560894566
    nsecs:  26968918
  frame_id: "ti_mmwave"
point_id: 2
x: 0.029296875
y: -0.119140625
z: -0.005859375
range: 0.130730912089
velocity: 0.0
doppler_bin: 8
bearing: -76.1849746704
intensity: 30.0732097626
---
header: 
  seq: 93006
  stamp: 
    secs: 1560894566
    nsecs:  26983449
  frame_id: "ti_mmwave"
point_id: 3
x: 0.056640625
y: -0.154296875
z: 0.0078125
range: 0.174307882786
velocity: 0.0
doppler_bin: 8
bearing: -69.8423843384
intensity: 25.403295517
---
header: 
  seq: 93007
  stamp: 
    secs: 1560894566
    nsecs:  27007812
  frame_id: "ti_mmwave"
point_id: 4
x: 0.501953125
y: -0.0
z: 1.1640625
range: 1.35088610649
velocity: 0.0
doppler_bin: 8
bearing: -0.0
intensity: 23.2633590698
---
header: 
  seq: 93008
  stamp: 
    secs: 1560894566
    nsecs:  27026449
  frame_id: "ti_mmwave"
point_id: 5
x: 0.537109375
y: -0.041015625
z: 1.193359375
range: 1.39446306229
velocity: 0.0
doppler_bin: 8
bearing: -4.36683940887
intensity: 24.2651119232
---
header: 
  seq: 93009
  stamp: 
    secs: 1560894566
    nsecs:  27106655
  frame_id: "ti_mmwave"
point_id: 6
x: 0.55859375
y: -0.0
z: 1.228515625
range: 1.43804001808
velocity: 0.0
doppler_bin: 8
bearing: -0.0
intensity: 22.810333252
---
header: 
  seq: 93010
  stamp: 
    secs: 1560894566
    nsecs:  27120784
  frame_id: "ti_mmwave"
point_id: 7
x: 2.640625
y: -0.0
z: 1.0
range: 3.00681090355
velocity: 0.0
doppler_bin: 8
bearing: -0.0
intensity: 28.7794704437
---
header: 
  seq: 93011
  stamp: 
    secs: 1560894566
    nsecs:  27133757
  frame_id: "ti_mmwave"
point_id: 8
x: 2.681640625
y: -0.0
z: 1.00390625
range: 3.05038785934
velocity: 0.0
doppler_bin: 8
bearing: -0.0
intensity: 32.1642990112
---
header: 
  seq: 93012
  stamp: 
    secs: 1560894566
    nsecs:  27145298
  frame_id: "ti_mmwave"
point_id: 9
x: 2.72265625
y: -0.0
z: 1.009765625
range: 3.09396481514
velocity: 0.0
doppler_bin: 8
bearing: -0.0
intensity: 31.3417701721
---
header: 
  seq: 93013
  stamp: 
    secs: 1560894566
    nsecs:  27157528
  frame_id: "ti_mmwave"
point_id: 10
x: 4.4609375
y: -0.0
z: 1.04296875
range: 4.88062095642
velocity: 0.0
doppler_bin: 8
bearing: -0.0
intensity: 30.99335289
---
header: 
  seq: 93014
  stamp: 
    secs: 1560894566
    nsecs:  27169225
  frame_id: "ti_mmwave"
point_id: 11
x: 4.52734375
y: -0.0
z: 0.927734375
range: 4.9241976738
velocity: 0.0
doppler_bin: 8
bearing: -0.0
intensity: 30.6182937622
---
header: 
  seq: 93015
  stamp: 
    secs: 1560894566
    nsecs:  27180802
  frame_id: "ti_mmwave"
point_id: 12
x: 4.658203125
y: -0.0
z: 0.23046875
range: 4.96777486801
velocity: 0.0
doppler_bin: 8
bearing: -0.0
intensity: 31.4395103455
---
header: 
  seq: 93016
  stamp: 
    secs: 1560894566
    nsecs:  27194078
  frame_id: "ti_mmwave"
point_id: 13
x: 4.697265625
y: 0.146484375
z: 0.216796875
range: 5.01135158539
velocity: 0.0
doppler_bin: 8
bearing: 1.7861918211
intensity: 32.8510704041
---
header: 
  seq: 93017
  stamp: 
    secs: 1560894566
    nsecs:  27207262
  frame_id: "ti_mmwave"
point_id: 14
x: 4.740234375
y: -0.1484375
z: -0.15234375
range: 5.0549287796
velocity: 0.0
doppler_bin: 8
bearing: -1.79359567165
intensity: 32.3904914856
---
header: 
  seq: 93018
  stamp: 
    secs: 1560894566
    nsecs:  27227647
  frame_id: "ti_mmwave"
point_id: 15
x: 4.767578125
y: -0.150390625
z: -0.3828125
range: 5.09850549698
velocity: 0.0
doppler_bin: 8
bearing: -1.80676472187
intensity: 33.7456512451
---
header: 
  seq: 93019
  stamp: 
    secs: 1560894566
    nsecs:  27245155
  frame_id: "ti_mmwave"
point_id: 16
x: 4.810546875
y: -0.150390625
z: -0.37109375
range: 5.14208269119
velocity: 0.0
doppler_bin: 8
bearing: -1.7906370163
intensity: 34.2618598938
---
header: 
  seq: 93020
  stamp: 
    secs: 1560894566
    nsecs:  27313262
  frame_id: "ti_mmwave"
point_id: 17
x: 4.84765625
y: -0.0
z: -0.447265625
range: 5.18565940857
velocity: 0.0
doppler_bin: 8
bearing: -0.0
intensity: 31.2450428009
---
header: 
  seq: 93021
  stamp: 
    secs: 1560894566
    nsecs:  27331196
  frame_id: "ti_mmwave"
point_id: 18
x: 4.857421875
y: -0.154296875
z: 0.939453125
range: 5.27281332016
velocity: 0.0
doppler_bin: 8
bearing: -1.81939888
intensity: 31.1427726746
---
header: 
  seq: 93022
  stamp: 
    secs: 1560894566
    nsecs:  27342886
  frame_id: "ti_mmwave"
point_id: 19
x: 2.01953125
y: 1.166015625
z: 0.044921875
range: 2.48388743401
velocity: 0.614668667316
doppler_bin: 9
bearing: 30.0008239746
intensity: 24.5484485626
---
header: 
  seq: 93023
  stamp: 
    secs: 1560894566
    nsecs:  27355547
  frame_id: "ti_mmwave"
point_id: 20
x: 2.0546875
y: 1.185546875
z: 0.0546875
range: 2.5274643898
velocity: 0.614668667316
doppler_bin: 9
bearing: 29.9847831726
intensity: 27.3639640808
---
header: 
  seq: 93024
  stamp: 
    secs: 1560894566
    nsecs:  27367937
  frame_id: "ti_mmwave"
point_id: 21
x: 2.04296875
y: 1.28125
z: 0.10546875
range: 2.5710413456
velocity: 0.614668667316
doppler_bin: 9
bearing: 32.0939254761
intensity: 26.7577838898
---
header: 
  seq: 93025
  stamp: 
    secs: 1560894566
    nsecs:  27385875
  frame_id: "ti_mmwave"
point_id: 23
x: 0.037109375
y: -0.03515625
z: 0.064453125
range: 0.0871539413929
velocity: 0.0
doppler_bin: 8
bearing: -43.4518432617
intensity: 30.1157035828
---
header: 
  seq: 93026
  stamp: 
    secs: 1560894566
    nsecs:  27400078
  frame_id: "ti_mmwave"
point_id: 24
x: 0.046875
y: -0.046875
z: 0.103515625
range: 0.130730912089
velocity: 0.0
doppler_bin: 8
bearing: -45.0
intensity: 28.9982051849
---
header: 
  seq: 93027
  stamp: 
    secs: 1560894566
    nsecs:  27416322
  frame_id: "ti_mmwave"
point_id: 26
x: 4.69921875
y: -0.146484375
z: 0.166015625
range: 5.01135158539
velocity: 0.0
doppler_bin: 8
bearing: -1.78544998169
intensity: 32.8443069458
---
header: 
  seq: 93028
  stamp: 
    secs: 1560894566
    nsecs:  28274067
  frame_id: "ti_mmwave"
point_id: 0
x: 0.01171875
y: -0.0390625
z: -0.0078125
range: 0.0435769706964
velocity: 0.0
doppler_bin: 8
bearing: -73.3007583618
intensity: 30.6483230591
---
header: 
  seq: 93029
  stamp: 
    secs: 1560894566
    nsecs:  28322059
  frame_id: "ti_mmwave"
point_id: 1
x: 0.02734375
y: -0.076171875
z: -0.009765625
range: 0.0871539413929
velocity: 0.0
doppler_bin: 8
bearing: -70.2531661987
intensity: 31.8469142914
---
header: 
  seq: 93030
  stamp: 
    secs: 1560894566
    nsecs:  28332216
  frame_id: "ti_mmwave"
point_id: 2
x: 0.029296875
y: -0.119140625
z: -0.005859375
range: 0.130730912089
velocity: 0.0
doppler_bin: 8
bearing: -76.1849746704
intensity: 30.0732097626
---
header: 
  seq: 93031
  stamp: 
    secs: 1560894566
    nsecs:  28340558
  frame_id: "ti_mmwave"
point_id: 3
x: 0.056640625
y: -0.154296875
z: 0.0078125
range: 0.174307882786
velocity: 0.0
doppler_bin: 8
bearing: -69.8423843384
intensity: 25.3907604218
---
header: 
  seq: 93032
  stamp: 
    secs: 1560894566
    nsecs:  28348942
  frame_id: "ti_mmwave"
point_id: 4
x: 0.5
y: -0.0
z: 1.166015625
range: 1.35088610649
velocity: 0.0
doppler_bin: 8
bearing: -0.0
intensity: 23.2221927643
---
header: 
  seq: 93033
  stamp: 
    secs: 1560894566
    nsecs:  28357136
  frame_id: "ti_mmwave"
point_id: 5
x: 0.529296875
y: -0.041015625
z: 1.197265625
range: 1.39446306229
velocity: 0.0
doppler_bin: 8
bearing: -4.43103933334
intensity: 24.2488155365
---
header: 
  seq: 93034
  stamp: 
    secs: 1560894566
    nsecs:  28366438
  frame_id: "ti_mmwave"
point_id: 6
x: 0.541015625
y: -0.0
z: 1.236328125
range: 1.43804001808
velocity: 0.0
doppler_bin: 8
bearing: -0.0
intensity: 22.7646179199
---
header: 
  seq: 93035
  stamp: 
    secs: 1560894566
    nsecs:  28374447
  frame_id: "ti_mmwave"
point_id: 7
x: 1.96875
y: 1.259765625
z: -0.40234375
range: 2.5274643898
velocity: 0.0
doppler_bin: 8
bearing: 32.6144065857
intensity: 26.7024593353
---
header: 
  seq: 93036
  stamp: 
    secs: 1560894566
    nsecs:  28382921
  frame_id: "ti_mmwave"
point_id: 8
x: 1.96875
y: 1.357421875
z: -0.3203125
range: 2.5710413456
velocity: 0.0
doppler_bin: 8
bearing: 34.585647583
intensity: 28.7909584045
---
header: 
  seq: 93037
  stamp: 
    secs: 1560894566
    nsecs:  28391769
  frame_id: "ti_mmwave"
point_id: 9
x: 2.056640625
y: 1.3046875
z: -0.306640625
range: 2.61461830139
velocity: 0.0
doppler_bin: 8
bearing: 32.3901405334
intensity: 27.6566848755
---
header: 
  seq: 93038
  stamp: 
    secs: 1560894566
    nsecs:  28400083
  frame_id: "ti_mmwave"
point_id: 10
x: 2.6484375
y: -0.0
z: 0.9765625
range: 3.00681090355
velocity: 0.0
doppler_bin: 8
bearing: -0.0
intensity: 28.8024177551
---
header: 
  seq: 93039
  stamp: 
    secs: 1560894566
    nsecs:  28408391
  frame_id: "ti_mmwave"
point_id: 11
x: 2.685546875
y: -0.0
z: 0.994140625
range: 3.05038785934
velocity: 0.0
doppler_bin: 8
bearing: -0.0
intensity: 32.1958465576
---
header: 
  seq: 93040
  stamp: 
    secs: 1560894566
    nsecs:  28416267
  frame_id: "ti_mmwave"
point_id: 12
x: 2.7265625
y: -0.0
z: 0.998046875
range: 3.09396481514
velocity: 0.0
doppler_bin: 8
bearing: -0.0
intensity: 31.344959259
---
header: 
  seq: 93041
  stamp: 
    secs: 1560894566
    nsecs:  28436778
  frame_id: "ti_mmwave"
point_id: 13
x: 4.4609375
y: -0.0
z: 1.04296875
range: 4.88062095642
velocity: 0.0
doppler_bin: 8
bearing: -0.0
intensity: 30.9829750061
---
header: 
  seq: 93042
  stamp: 
    secs: 1560894566
    nsecs:  28447548
  frame_id: "ti_mmwave"
point_id: 14
x: 4.52734375
y: -0.0
z: 0.93359375
range: 4.9241976738
velocity: 0.0
doppler_bin: 8
bearing: -0.0
intensity: 30.6370849609
---
header: 
  seq: 93043
  stamp: 
    secs: 1560894566
    nsecs:  28517085
  frame_id: "ti_mmwave"
point_id: 15
x: 4.658203125
y: -0.0
z: 0.23046875
range: 4.96777486801
velocity: 0.0
doppler_bin: 8
bearing: -0.0
intensity: 31.4612808228
---
header: 
  seq: 93044
  stamp: 
    secs: 1560894566
    nsecs:  28528036
  frame_id: "ti_mmwave"
point_id: 16
x: 4.697265625
y: 0.146484375
z: 0.2265625
range: 5.01135158539
velocity: 0.0
doppler_bin: 8
bearing: 1.7861918211
intensity: 32.8555717468
---
header: 
  seq: 93045
  stamp: 
    secs: 1560894566
    nsecs:  28537171
  frame_id: "ti_mmwave"
point_id: 17
x: 4.740234375
y: -0.1484375
z: -0.138671875
range: 5.0549287796
velocity: 0.0
doppler_bin: 8
bearing: -1.79359567165
intensity: 32.3879852295
---
header: 
  seq: 93046
  stamp: 
    secs: 1560894566
    nsecs:  28546173
  frame_id: "ti_mmwave"
point_id: 18
x: 4.76953125
y: -0.150390625
z: -0.37890625
range: 5.09850549698
velocity: 0.0
doppler_bin: 8
bearing: -1.80602538586
intensity: 33.719909668
---
header: 
  seq: 93047
  stamp: 
    secs: 1560894566
    nsecs:  28553696
  frame_id: "ti_mmwave"
point_id: 19
x: 4.80859375
y: -0.150390625
z: -0.390625
range: 5.14208269119
velocity: 0.0
doppler_bin: 8
bearing: -1.79136347771
intensity: 34.1413726807
---
header: 
  seq: 93048
  stamp: 
    secs: 1560894566
    nsecs:  28563105
  frame_id: "ti_mmwave"
point_id: 20
x: 4.826171875
y: -0.0
z: -0.638671875
range: 5.18565940857
velocity: 0.0
doppler_bin: 8
bearing: -0.0
intensity: 30.7481651306
---
header: 
  seq: 93049
  stamp: 
    secs: 1560894566
    nsecs:  28570661
  frame_id: "ti_mmwave"
point_id: 21
x: 4.7890625
y: -0.154296875
z: 1.2421875
range: 5.27281332016
velocity: 0.0
doppler_bin: 8
bearing: -1.84535121918
intensity: 31.00715065
---
header: 
  seq: 93050
  stamp: 
    secs: 1560894566
    nsecs:  28578745
  frame_id: "ti_mmwave"
point_id: 22
x: 1.990234375
y: 1.357421875
z: -0.154296875
range: 2.5710413456
velocity: 0.614668667316
doppler_bin: 9
bearing: 34.2956008911
intensity: 28.864906311
---
header: 
  seq: 93051
  stamp: 
    secs: 1560894566
    nsecs:  28586305
  frame_id: "ti_mmwave"
point_id: 23
x: 2.025390625
y: 1.380859375
z: -0.123046875
range: 2.61461830139
velocity: 0.614668667316
doppler_bin: 9
bearing: 34.2851638794
intensity: 27.7305469513
---
header: 
  seq: 93052
  stamp: 
    secs: 1560894566
    nsecs:  28599207
  frame_id: "ti_mmwave"
point_id: 25
x: 0.037109375
y: -0.03515625
z: 0.064453125
range: 0.0871539413929
velocity: 0.0
doppler_bin: 8
bearing: -43.4518432617
intensity: 30.1157035828
---
header: 
  seq: 93053
  stamp: 
    secs: 1560894566
    nsecs:  28608409
  frame_id: "ti_mmwave"
point_id: 26
x: 0.046875
y: -0.046875
z: 0.103515625
range: 0.130730912089
velocity: 0.0
doppler_bin: 8
bearing: -45.0
intensity: 28.9982051849
---
header: 
  seq: 93054
  stamp: 
    secs: 1560894566
    nsecs:  86987505
  frame_id: "ti_mmwave"
point_id: 0
x: 0.01171875
y: -0.0390625
z: -0.0078125
range: 0.0435769706964
velocity: 0.0
doppler_bin: 8
bearing: -73.3007583618
intensity: 30.6483230591
---
header: 
  seq: 93055
  stamp: 
    secs: 1560894566
    nsecs:  87056980
  frame_id: "ti_mmwave"
point_id: 1
x: 0.02734375
y: -0.076171875
z: -0.009765625
range: 0.0871539413929
velocity: 0.0
doppler_bin: 8
bearing: -70.2531661987
intensity: 31.8440742493
---
header: 
  seq: 93056
  stamp: 
    secs: 1560894566
    nsecs:  87072892
  frame_id: "ti_mmwave"
point_id: 2
x: 0.029296875
y: -0.119140625
z: -0.005859375
range: 0.130730912089
velocity: 0.0
doppler_bin: 8
bearing: -76.1849746704
intensity: 30.0774784088
---
header: 
  seq: 93057
  stamp: 
    secs: 1560894566
    nsecs:  87089280
  frame_id: "ti_mmwave"
point_id: 3
x: 0.056640625
y: -0.154296875
z: 0.0078125
range: 0.174307882786
velocity: 0.0
doppler_bin: 8
bearing: -69.8423843384
intensity: 25.4157924652
---
header: 
  seq: 93058
  stamp: 
    secs: 1560894566
    nsecs:  87113803
  frame_id: "ti_mmwave"
point_id: 4
x: 0.47265625
y: -0.0
z: 1.17578125
range: 1.35088610649
velocity: 0.0
doppler_bin: 8
bearing: -0.0
intensity: 23.2428245544
---
header: 
  seq: 93059
  stamp: 
    secs: 1560894566
    nsecs:  87191671
  frame_id: "ti_mmwave"
point_id: 5
x: 0.515625
y: -0.041015625
z: 1.203125
range: 1.39446306229
velocity: 0.0
doppler_bin: 8
bearing: -4.54804229736
intensity: 24.2488155365
---
header: 
  seq: 93060
  stamp: 
    secs: 1560894566
    nsecs:  87206664
  frame_id: "ti_mmwave"
point_id: 6
x: 0.544921875
y: -0.0
z: 1.234375
range: 1.43804001808
velocity: 0.0
doppler_bin: 8
bearing: -0.0
intensity: 22.7875366211
---
header: 
  seq: 93061
  stamp: 
    secs: 1560894566
    nsecs:  87217841
  frame_id: "ti_mmwave"
point_id: 7
x: 2.646484375
y: -0.0
z: 0.982421875
range: 3.00681090355
velocity: 0.0
doppler_bin: 8
bearing: -0.0
intensity: 28.7737140656
---
header: 
  seq: 93062
  stamp: 
    secs: 1560894566
    nsecs:  87228893
  frame_id: "ti_mmwave"
point_id: 8
x: 2.68359375
y: -0.0
z: 1.0
range: 3.05038785934
velocity: 0.0
doppler_bin: 8
bearing: -0.0
intensity: 32.1774711609
---
header: 
  seq: 93063
  stamp: 
    secs: 1560894566
    nsecs:  87240038
  frame_id: "ti_mmwave"
point_id: 9
x: 2.720703125
y: -0.0
z: 1.017578125
range: 3.09396481514
velocity: 0.0
doppler_bin: 8
bearing: -0.0
intensity: 31.3545074463
---
header: 
  seq: 93064
  stamp: 
    secs: 1560894566
    nsecs:  87253617
  frame_id: "ti_mmwave"
point_id: 10
x: 4.455078125
y: -0.0
z: 1.064453125
range: 4.88062095642
velocity: 0.0
doppler_bin: 8
bearing: -0.0
intensity: 30.9760437012
---
header: 
  seq: 93065
  stamp: 
    secs: 1560894566
    nsecs:  87265975
  frame_id: "ti_mmwave"
point_id: 11
x: 4.521484375
y: -0.0
z: 0.95703125
range: 4.9241976738
velocity: 0.0
doppler_bin: 8
bearing: -0.0
intensity: 30.6182937622
---
header: 
  seq: 93066
  stamp: 
    secs: 1560894566
    nsecs:  87279392
  frame_id: "ti_mmwave"
point_id: 12
x: 4.65625
y: -0.0
z: 0.24609375
range: 4.96777486801
velocity: 0.0
doppler_bin: 8
bearing: -0.0
intensity: 31.4767627716
---
header: 
  seq: 93067
  stamp: 
    secs: 1560894566
    nsecs:  87289243
  frame_id: "ti_mmwave"
point_id: 13
x: 4.697265625
y: 0.146484375
z: 0.220703125
range: 5.01135158539
velocity: 0.0
doppler_bin: 8
bearing: 1.7861918211
intensity: 32.8735389709
---
header: 
  seq: 93068
  stamp: 
    secs: 1560894566
    nsecs:  87351221
  frame_id: "ti_mmwave"
point_id: 14
x: 4.740234375
y: -0.1484375
z: -0.150390625
range: 5.0549287796
velocity: 0.0
doppler_bin: 8
bearing: -1.79359567165
intensity: 32.4029960632
---
header: 
  seq: 93069
  stamp: 
    secs: 1560894566
    nsecs:  87367490
  frame_id: "ti_mmwave"
point_id: 15
x: 4.767578125
y: -0.150390625
z: -0.388671875
range: 5.09850549698
velocity: 0.0
doppler_bin: 8
bearing: -1.80676472187
intensity: 33.7657699585
---
header: 
  seq: 93070
  stamp: 
    secs: 1560894566
    nsecs:  87379428
  frame_id: "ti_mmwave"
point_id: 16
x: 4.810546875
y: -0.150390625
z: -0.365234375
range: 5.14208269119
velocity: 0.0
doppler_bin: 8
bearing: -1.7906370163
intensity: 34.4279327393
---
header: 
  seq: 93071
  stamp: 
    secs: 1560894566
    nsecs:  87393834
  frame_id: "ti_mmwave"
point_id: 17
x: 4.8515625
y: -0.0
z: -0.40234375
range: 5.18565940857
velocity: 0.0
doppler_bin: 8
bearing: -0.0
intensity: 31.8069915771
---
header: 
  seq: 93072
  stamp: 
    secs: 1560894566
    nsecs:  87407147
  frame_id: "ti_mmwave"
point_id: 18
x: 4.794921875
y: -0.0
z: 1.228515625
range: 5.27281332016
velocity: 0.0
doppler_bin: 8
bearing: -0.0
intensity: 31.3257980347
---
header: 
  seq: 93073
  stamp: 
    secs: 1560894566
    nsecs:  87424105
  frame_id: "ti_mmwave"
point_id: 20
x: 0.037109375
y: -0.03515625
z: 0.064453125
range: 0.0871539413929
velocity: 0.0
doppler_bin: 8
bearing: -43.4518432617
intensity: 30.1114730835
---
header: 
  seq: 93074
  stamp: 
    secs: 1560894566
    nsecs:  87434762
  frame_id: "ti_mmwave"
point_id: 21
x: 0.046875
y: -0.046875
z: 0.103515625
range: 0.130730912089
velocity: 0.0
doppler_bin: 8
bearing: -45.0
intensity: 28.9982051849
---
header: 
  seq: 93075
  stamp: 
    secs: 1560894566
    nsecs:  87498000
  frame_id: "ti_mmwave"
point_id: 22
x: 0.009765625
y: -0.056640625
z: 0.154296875
range: 0.174307882786
velocity: 0.0
doppler_bin: 8
bearing: -80.217590332
intensity: 25.2374649048
---
header: 
  seq: 93076
  stamp: 
    secs: 1560894566
    nsecs:  87513907
  frame_id: "ti_mmwave"
point_id: 23
x: 4.69921875
y: -0.146484375
z: 0.169921875
range: 5.01135158539
velocity: 0.0
doppler_bin: 8
bearing: -1.78544998169
intensity: 32.8623199463
---
header: 
  seq: 93077
  stamp: 
    secs: 1560894566
    nsecs:  88656472
  frame_id: "ti_mmwave"
point_id: 0
x: 0.01171875
y: -0.0390625
z: -0.0078125
range: 0.0435769706964
velocity: 0.0
doppler_bin: 8
bearing: -73.3007583618
intensity: 30.6520614624
---
header: 
  seq: 93078
  stamp: 
    secs: 1560894566
    nsecs:  88689272
  frame_id: "ti_mmwave"
point_id: 1
x: 0.02734375
y: -0.076171875
z: -0.009765625
range: 0.0871539413929
velocity: 0.0
doppler_bin: 8
bearing: -70.2531661987
intensity: 31.8440742493
---
header: 
  seq: 93079
  stamp: 
    secs: 1560894566
    nsecs:  88704472
  frame_id: "ti_mmwave"
point_id: 2
x: 0.029296875
y: -0.119140625
z: -0.005859375
range: 0.130730912089
velocity: 0.0
doppler_bin: 8
bearing: -76.1849746704
intensity: 30.0774784088
---
header: 
  seq: 93080
  stamp: 
    secs: 1560894566
    nsecs:  88725439
  frame_id: "ti_mmwave"
point_id: 3
x: 0.056640625
y: -0.154296875
z: 0.0078125
range: 0.174307882786
velocity: 0.0
doppler_bin: 8
bearing: -69.8423843384
intensity: 25.4157924652
---
header: 
  seq: 93081
  stamp: 
    secs: 1560894566
    nsecs:  88785392
  frame_id: "ti_mmwave"
point_id: 4
x: 0.486328125
y: -0.0
z: 1.171875
range: 1.35088610649
velocity: 0.0
doppler_bin: 8
bearing: -0.0
intensity: 23.2221927643
---
header: 
  seq: 93082
  stamp: 
    secs: 1560894566
    nsecs:  88800740
  frame_id: "ti_mmwave"
point_id: 5
x: 0.52734375
y: -0.041015625
z: 1.197265625
range: 1.39446306229
velocity: 0.0
doppler_bin: 8
bearing: -4.44738483429
intensity: 24.2324581146
---
header: 
  seq: 93083
  stamp: 
    secs: 1560894566
    nsecs:  88813059
  frame_id: "ti_mmwave"
point_id: 6
x: 0.529296875
y: -0.0
z: 1.2421875
range: 1.43804001808
velocity: 0.0
doppler_bin: 8
bearing: -0.0
intensity: 22.7646179199
---
header: 
  seq: 93084
  stamp: 
    secs: 1560894566
    nsecs:  88824959
  frame_id: "ti_mmwave"
point_id: 7
x: 2.060546875
y: 1.404296875
z: -0.1171875
range: 2.65819525719
velocity: 0.0
doppler_bin: 8
bearing: 34.2750778198
intensity: 27.7959651947
---
header: 
  seq: 93085
  stamp: 
    secs: 1560894566
    nsecs:  88837863
  frame_id: "ti_mmwave"
point_id: 8
x: 2.6328125
y: -0.0
z: 1.017578125
range: 3.00681090355
velocity: 0.0
doppler_bin: 8
bearing: -0.0
intensity: 28.8081359863
---
header: 
  seq: 93086
  stamp: 
    secs: 1560894566
    nsecs:  88846595
  frame_id: "ti_mmwave"
point_id: 9
x: 2.67578125
y: -0.0
z: 1.01953125
range: 3.05038785934
velocity: 0.0
doppler_bin: 8
bearing: -0.0
intensity: 32.1722068787
---
header: 
  seq: 93087
  stamp: 
    secs: 1560894566
    nsecs:  88906685
  frame_id: "ti_mmwave"
point_id: 10
x: 2.712890625
y: -0.0
z: 1.037109375
range: 3.09396481514
velocity: 0.0
doppler_bin: 8
bearing: -0.0
intensity: 31.3576850891
---
header: 
  seq: 93088
  stamp: 
    secs: 1560894566
    nsecs:  88923239
  frame_id: "ti_mmwave"
point_id: 11
x: 4.4609375
y: -0.0
z: 1.048828125
range: 4.88062095642
velocity: 0.0
doppler_bin: 8
bearing: -0.0
intensity: 30.9829750061
---
header: 
  seq: 93089
  stamp: 
    secs: 1560894566
    nsecs:  88934679
  frame_id: "ti_mmwave"
point_id: 12
x: 4.52734375
y: -0.0
z: 0.931640625
range: 4.9241976738
velocity: 0.0
doppler_bin: 8
bearing: -0.0
intensity: 30.6333332062
---
header: 
  seq: 93090
  stamp: 
    secs: 1560894566
    nsecs:  88948422
  frame_id: "ti_mmwave"
point_id: 13
x: 4.658203125
y: -0.0
z: 0.220703125
range: 4.96777486801
velocity: 0.0
doppler_bin: 8
bearing: -0.0
intensity: 31.4488544464
---
header: 
  seq: 93091
  stamp: 
    secs: 1560894566
    nsecs:  88960701
  frame_id: "ti_mmwave"
point_id: 14
x: 4.697265625
y: 0.146484375
z: 0.212890625
range: 5.01135158539
velocity: 0.0
doppler_bin: 8
bearing: 1.7861918211
intensity: 32.848815918
---
header: 
  seq: 93092
  stamp: 
    secs: 1560894566
    nsecs:  88973684
  frame_id: "ti_mmwave"
point_id: 15
x: 4.740234375
y: -0.1484375
z: -0.150390625
range: 5.0549287796
velocity: 0.0
doppler_bin: 8
bearing: -1.79359567165
intensity: 32.3854789734
---
header: 
  seq: 93093
  stamp: 
    secs: 1560894566
    nsecs:  88984976
  frame_id: "ti_mmwave"
point_id: 16
x: 4.76953125
y: -0.150390625
z: -0.376953125
range: 5.09850549698
velocity: 0.0
doppler_bin: 8
bearing: -1.80602538586
intensity: 33.7493171692
---
header: 
  seq: 93094
  stamp: 
    secs: 1560894566
    nsecs:  88996653
  frame_id: "ti_mmwave"
point_id: 17
x: 4.8125
y: -0.150390625
z: -0.333984375
range: 5.14208269119
velocity: 0.0
doppler_bin: 8
bearing: -1.7899106741
intensity: 34.3344993591
---
header: 
  seq: 93095
  stamp: 
    secs: 1560894566
    nsecs:  89008110
  frame_id: "ti_mmwave"
point_id: 18
x: 4.861328125
y: -0.0
z: -0.26953125
range: 5.18565940857
velocity: 0.0
doppler_bin: 8
bearing: -0.0
intensity: 31.5896530151
---
header: 
  seq: 93096
  stamp: 
    secs: 1560894566
    nsecs:  89017201
  frame_id: "ti_mmwave"
point_id: 19
x: 4.822265625
y: -0.154296875
z: 1.109375
range: 5.27281332016
velocity: 0.0
doppler_bin: 8
bearing: -1.83265411854
intensity: 31.4019374847
---
header: 
  seq: 93097
  stamp: 
    secs: 1560894566
    nsecs:  89082053
  frame_id: "ti_mmwave"
point_id: 20
x: 1.939453125
y: 1.333984375
z: -0.2890625
range: 2.5274643898
velocity: 0.614668667316
doppler_bin: 9
bearing: 34.5207672119
intensity: 25.6820163727
---
header: 
  seq: 93098
  stamp: 
    secs: 1560894566
    nsecs:  89097441
  frame_id: "ti_mmwave"
point_id: 21
x: 2.037109375
y: 1.28125
z: -0.181640625
range: 2.5710413456
velocity: 0.614668667316
doppler_bin: 9
bearing: 32.1680412292
intensity: 28.4880466461
---
header: 
  seq: 93099
  stamp: 
    secs: 1560894566
    nsecs:  89111755
  frame_id: "ti_mmwave"
point_id: 22
x: 2.029296875
y: 1.380859375
z: -0.0546875
range: 2.61461830139
velocity: 0.614668667316
doppler_bin: 9
bearing: 34.2337989807
intensity: 29.0525608063
---
header: 
  seq: 93100
  stamp: 
    secs: 1560894566
    nsecs:  89127126
  frame_id: "ti_mmwave"
point_id: 24
x: 0.037109375
y: -0.03515625
z: 0.064453125
range: 0.0871539413929
velocity: 0.0
doppler_bin: 8
bearing: -43.4518432617
intensity: 30.1114730835
---
header: 
  seq: 93101
  stamp: 
    secs: 1560894566
    nsecs:  89139688
  frame_id: "ti_mmwave"
point_id: 25
x: 0.046875
y: -0.046875
z: 0.103515625
range: 0.130730912089
velocity: 0.0
doppler_bin: 8
bearing: -45.0
intensity: 28.9982051849
---
header: 
  seq: 93102
  stamp: 
    secs: 1560894566
    nsecs:  89154943
  frame_id: "ti_mmwave"
point_id: 27
x: 4.69921875
y: -0.146484375
z: 0.162109375
range: 5.01135158539
velocity: 0.0
doppler_bin: 8
bearing: -1.78544998169
intensity: 32.8375320435
---
header: 
  seq: 93103
  stamp: 
    secs: 1560894566
    nsecs: 146830790
  frame_id: "ti_mmwave"
point_id: 0
x: 0.01171875
y: -0.0390625
z: -0.0078125
range: 0.0435769706964
velocity: 0.0
doppler_bin: 8
bearing: -73.3007583618
intensity: 30.6595306396
---
header: 
  seq: 93104
  stamp: 
    secs: 1560894566
    nsecs: 146927465
  frame_id: "ti_mmwave"
point_id: 1
x: 0.02734375
y: -0.076171875
z: -0.009765625
range: 0.0871539413929
velocity: 0.0
doppler_bin: 8
bearing: -70.2531661987
intensity: 31.8469142914
---
header: 
  seq: 93105
  stamp: 
    secs: 1560894566
